{
    "points": [
        { "id": 1, "name": "Nathan Munis de Santana", "post": "Desenvolvedor PL", "points": "14:43 - 15:53", "hours": "107h" },
        { "id": 2, "name": "Nathan Munis de Santana", "post": "Desenvolvedor PL", "points": "14:43 - 15:53", "hours": "107h" },
        { "id": 3, "name": "Nathan Munis de Santana", "post": "Desenvolvedor PL", "points": "14:43 - 15:53", "hours": "107h" },
        { "id": 4, "name": "Nathan Munis de Santana", "post": "Desenvolvedor PL", "points": "14:43 - 15:53", "hours": "107h" },
        { "id": 5, "name": "Nathan Munis de Santana", "post": "Desenvolvedor PL", "points": "14:43 - 15:53", "hours": "107h" },
        { "id": 6, "name": "Nathan Munis de Santana", "post": "Desenvolvedor PL", "points": "14:43 - 15:53", "hours": "107h" },
        { "id": 7, "name": "Nathan Munis de Santana", "post": "Desenvolvedor PL", "points": "14:43 - 15:53", "hours": "107h" },
        { "id": 8, "name": "Nathan Munis de Santana", "post": "Desenvolvedor PL", "points": "14:43 - 15:53", "hours": "107h" },
        { "id": 9, "name": "Nathan Munis de Santana", "post": "Desenvolvedor PL", "points": "14:43 - 15:53", "hours": "107h" },
        { "id": 10, "name": "Nathan Munis de Santana", "post": "Desenvolvedor PL", "points": "14:43 - 15:53", "hours": "107h" }
    ],
    "user": [
        { "id": 1, "name": "Nathan Munis", "image_url": "kkkkk", "position": "Desenvolvedor PL", "points": ["08:40", "10:40"] }
    ]
  }